Site	Cluster	Lat	Lon
Suyian	NE	0.50675	36.69235
Mpala	NE	0.28961	36.87106
Kitengela	SE	-1.39645	36.82562
Ngong	SE	-1.47344	36.64562
Ngong	SE	-1.47590	36.64340
Isnya	SE	-1.60041	36.75144
Isnya	SE	-1.60114	36.75115
Mogotio	NW	0.17323	36.08356
Koriema	NW	0.47942	35.85226
Gilgil	SW	-0.47670	36.35554
Naivasha	SW	-0.82773	36.33415
Narok	SW	-1.10153	36.06934
